City,Lat,Long,Max Temp,Humidity,Cloudiness,Wind Speed,Country,Date
camacha,33.0833,-16.3333,289.15,88,75,6.69,PT,1612752909
hilo,19.7297,-155.09,298.15,61,75,3.6,US,1612752909
erdaojiang,41.7764,126.0319,261.54,87,95,1.86,CN,1612752664
maymyo,22.0333,96.4667,293.15,64,40,1.03,MM,1612752909
puerto ayora,-0.7393,-90.3518,297.59,95,99,2.58,EC,1612752909
