City,Lat,Long,Max Temp,Humidity,Cloudiness,Wind Speed,Country,Date
port alfred,-33.5906,26.891,66.99,88,58,1.99,ZA,1612816530
petropavlovsk-kamchatskiy,53.0452,158.6483,14,85,20,6.71,RU,1612816499
bengkulu,-3.8004,102.2655,75.63,77,91,5.14,ID,1612816799
ayr,55.4627,-4.6339,30.99,74,0,8.05,GB,1612816800
jamestown,42.097,-79.2353,23,58,90,5.99,US,1612816801
srednekolymsk,67.45,153.6833,-2.11,90,99,3.02,RU,1612816805
areosa,41.7178,-8.8571,53.6,66,40,6.91,PT,1612816806
avarua,-21.2078,-159.775,84.2,74,20,6.91,CK,1612816807
saint-philippe,-21.3585,55.7679,77,78,20,5.75,RE,1612816809
krasnaya polyana,56.242,51.1442,-14.73,86,77,10.89,RU,1612816810
alofi,-19.0595,-169.9187,84.2,79,75,6.91,NU,1612816811
busselton,-33.65,115.3333,55.99,98,91,9.84,AU,1612816814
sovetskiy,61.3614,63.5842,-13.45,89,100,7.07,RU,1612816815
ancud,-41.8697,-73.8203,82.4,39,0,6.91,CL,1612816816
klaksvik,62.2266,-6.589,35.6,60,20,8.05,FO,1612816817
luis correia,-2.8792,-41.6669,84.2,79,40,13.8,BR,1612816819
mao,39.8885,4.2658,53.6,82,20,6.91,ES,1612816820
poso,-1.3959,120.7524,77,84,98,3.11,ID,1612816821
williamsburg,37.2707,-76.7075,44.6,36,1,8.01,US,1612816761
mataura,-46.1927,168.8643,60.39,85,100,2.33,NZ,1612816823
nikolskoye,59.7035,30.7861,5,78,0,2.24,RU,1612816824
cabo san lucas,22.8909,-109.9124,75.99,43,1,6.91,MX,1612816733
pacific grove,36.6177,-121.9166,55,76,1,12.66,US,1612816826
ocos,14.5094,-92.1933,93.2,54,1,11.5,GT,1612816827
quepos,9.4236,-84.1652,82.4,50,20,16.11,CR,1612816828
clyde river,70.4692,-68.5914,10.4,85,20,27.63,CA,1612816829
panaba,21.2833,-88.2667,89.55,44,0,13.22,MX,1612816831
torbay,47.6666,-52.7314,33.01,100,90,20.71,CA,1612816832
hithadhoo,-0.6,73.0833,82.56,78,93,10.38,MV,1612816833
butaritari,3.0707,172.7902,81.79,83,73,20.18,KI,1612816834
makakilo city,21.3469,-158.0858,78.8,50,1,12.66,US,1612816835
romitan,39.9343,64.3814,41,87,0,4.61,UZ,1612816836
kavaratti,10.5669,72.642,81.05,65,0,5.5,IN,1612816838
malacacheta,-17.8422,-42.0767,67.8,97,100,2.15,BR,1612816839
mogok,22.9167,96.5,49.14,82,9,2.68,MM,1612816841
rikitea,-23.1203,-134.9692,77.49,70,29,5.55,PF,1612816843
husavik,66.0449,-17.3389,28.4,86,75,3.44,IS,1612816844
ushuaia,-54.8,-68.3,60.8,55,0,11.5,AR,1612816665
doha,25.2867,51.5333,66.2,72,0,11.5,QA,1612816846
port-gentil,-0.7193,8.7815,82.4,89,40,3.44,GA,1612816847
barcelos,41.5388,-8.6151,53.6,66,40,6.91,PT,1612816756
albany,42.6001,-73.9662,27,39,85,2.59,US,1612816569
bluff,-46.6,168.3333,56.68,95,100,9.98,NZ,1612816850
arraial do cabo,-22.9661,-42.0278,73.4,88,75,5.75,BR,1612816758
cherskiy,68.75,161.3,4.17,73,100,5.53,RU,1612816852
kadyy,57.787,43.1903,-6.68,90,79,6.67,RU,1612816853
mpongwe,-13.5091,28.155,65.46,94,100,0.89,ZM,1612816855
rocha,-34.4833,-54.3333,65.75,85,90,7.29,UY,1612816856
leningradskiy,69.3833,178.4167,-22.5,84,67,10.13,RU,1612816857
richards bay,-28.783,32.0377,75.67,91,82,6.6,ZA,1612816858
ostrovnoy,68.0531,39.5131,0,89,91,13.67,RU,1612816859
port pirie,-33.1833,138.0167,59,77,0,3.44,AU,1612816860
la palma,33.8464,-118.0467,63,55,40,9.22,US,1612816861
tura,25.5198,90.2201,56.79,49,0,2.37,IN,1612816808
dauphin,51.1494,-100.0502,-16.6,63,1,28.77,CA,1612816863
trinidad,-14.8333,-64.9,91.4,66,75,5.75,BO,1612816864
punta arenas,-53.15,-70.9167,69.8,46,0,21.85,CL,1612816866
yellowknife,62.456,-114.3525,-29.2,68,90,19.57,CA,1612816662
barrow,71.2906,-156.7887,-34.6,84,1,10.36,US,1612816868
cape town,-33.9258,18.4232,71.01,78,20,18.41,ZA,1612816870
constitucion,-35.3333,-72.4167,65.73,73,13,12.28,CL,1612816764
conkal,21.0667,-89.5333,93.2,38,40,18.41,MX,1612816872
marathon,44.9,-89.7668,3.99,60,1,8.05,US,1612816873
upernavik,72.7868,-56.1549,15.46,78,0,3.96,GL,1612816874
pevek,69.7008,170.3133,-12.93,82,100,0.69,RU,1612816875
san juan,-31.5375,-68.5364,62.33,68,100,13.96,AR,1612816876
broome,42.2506,-75.833,24.01,41,90,5.75,US,1612816878
kodiak,57.79,-152.4072,32,69,1,13.8,US,1612816879
saldanha,-33.0117,17.9442,68,77,0,17.27,ZA,1612816880
redlands,34.0556,-117.1825,70,28,20,3.44,US,1612816881
kangaatsiaq,68.3065,-53.4641,15.66,87,0,8.75,GL,1612816882
lagoa,39.05,-27.9833,59.43,74,100,26.19,PT,1612816883
chokurdakh,70.6333,147.9167,-11,85,0,10.4,RU,1612816885
nelson bay,-32.7167,152.15,69.01,77,75,14.97,AU,1612816886
los llanos de aridane,28.6585,-17.9182,66.2,68,75,3.44,ES,1612816887
mapiripan,2.8892,-72.1256,90.41,51,76,8.48,CO,1612816888
ust-nera,64.5667,143.2,-14.35,79,13,6.82,RU,1612816890
boyolangu,-8.1181,111.8935,74.75,90,100,6.49,ID,1612816891
vaini,-21.2,-175.2,78.8,94,90,10.36,TO,1612816892
atuona,-9.8,-139.0333,79.68,76,75,21.41,PF,1612816893
villazon,-22.0866,-65.5942,56.43,64,97,17.94,BO,1612816894
pisco,-13.7,-76.2167,77,69,0,8.05,PE,1612816755
ahipara,-35.1667,173.1667,70.88,72,100,10.54,NZ,1612816896
tiksi,71.6872,128.8694,-26.64,86,100,4.9,RU,1612816898
quelimane,-17.8786,36.8883,84.2,65,20,4.61,MZ,1612816899
hobart,-42.8794,147.3294,53.6,71,75,9.22,AU,1612816815
college,64.8569,-147.8028,-7.01,82,1,4.18,US,1612816801
sar-e pul,35.8333,66.1667,39.88,71,84,1.83,AF,1612816902
mar del plata,-38.0023,-57.5575,66.2,68,75,18.41,AR,1612816903
santo andre,-23.6639,-46.5383,71.6,60,75,16.11,BR,1612816905
pushkino,56.0172,37.8667,-0.4,85,0,2.24,RU,1612816906
mount gambier,-37.8333,140.7667,48.2,93,0,9.22,AU,1612816887
tromso,69.6496,18.957,21.2,79,75,4.61,NO,1612816843
camana,-16.6228,-72.7111,75.92,70,64,7.45,PE,1612816910
bloomfield,40.8068,-74.1854,30.99,29,1,5.75,US,1612816912
sao joao da barra,-21.6403,-41.0511,75.2,83,90,13.8,BR,1612816913
dobson,36.3957,-80.7226,46,49,90,4.61,US,1612816914
qaanaaq,77.484,-69.3632,20.5,80,100,6.2,GL,1612816915
tuktoyaktuk,69.4541,-133.0374,-40,67,1,2.3,CA,1612816917
indiana,40.0003,-86.2503,26.01,63,90,4.61,US,1612816750
homer,59.6425,-151.5483,24.8,63,1,13.8,US,1612816919
nador,35.174,-2.9287,60.8,72,0,10.36,MA,1612816785
bethel,41.3712,-73.414,28,36,1,4.61,US,1612816921
banda aceh,5.5577,95.3222,78.04,82,2,6.93,ID,1612816922
hermanus,-34.4187,19.2345,69.01,84,7,5.1,ZA,1612816923
georgetown,5.4112,100.3354,78.8,83,20,3.44,MY,1612816669
saint-louis,16.3333,-15,75.07,18,99,11.23,SN,1612816925
maridi,4.9158,29.4742,72,25,68,2.55,SS,1612816926
hilo,19.7297,-155.09,78.8,53,20,3.44,US,1612816730
thinadhoo,0.5333,72.9333,82.47,80,93,13.89,MV,1612816929
leirvik,59.7798,5.5005,23,58,0,6.91,NO,1612816930
soverato,38.685,16.5499,57.2,77,75,10.36,IT,1612816931
port elizabeth,-33.918,25.5701,68,77,40,10.36,ZA,1612816932
lavrentiya,65.5833,-171,-4.34,84,100,10.56,RU,1612816933
fukue,32.6881,128.8419,44.17,67,55,15.3,JP,1612816934
haines junction,60.7522,-137.5108,-7.6,59,100,6.91,CA,1612816935
chapada dos guimaraes,-15.4606,-55.7497,93.2,33,20,4.61,BR,1612816936
bredasdorp,-34.5322,20.0403,64.4,88,2,3.44,ZA,1612816937
carnarvon,-24.8667,113.6333,75.2,100,0,17.27,AU,1612816939
sitka,57.0531,-135.33,24.8,58,90,13.8,US,1612816940
berlevag,70.8578,29.0864,19.4,73,75,16.11,NO,1612816941
port hardy,50.6996,-127.4199,37.4,48,20,10.36,CA,1612816942
ratnagiri,16.9833,73.3,72.84,39,0,5.95,IN,1612816943
kloulklubed,7.0419,134.2556,78.8,94,90,10.36,PW,1612816944
abbeville,50.1,1.8333,26.01,85,97,9.57,FR,1612816945
lebu,-37.6167,-73.65,64.27,80,56,8.84,CL,1612816946
flinders,-34.5833,150.8552,66,91,94,1.01,AU,1612816947
gravdal,68.1214,13.5031,28.4,93,20,5.75,NO,1612816948
tasiilaq,65.6145,-37.6368,24.8,54,75,16.11,GL,1612816949
salalah,17.0151,54.0924,71.6,73,0,4.61,OM,1612816888
pinega,64.7001,43.3936,-22.86,86,2,4.99,RU,1612816952
vostok,46.4856,135.8833,-12.8,90,100,6.24,RU,1612816954
kungurtug,50.5994,97.5228,9.99,85,98,3.98,RU,1612816955
kruisfontein,-34.0033,24.7314,66,82,14,1.01,ZA,1612816956
beberibe,-4.1797,-38.1306,84.2,74,20,12.66,BR,1612816957
sao filipe,14.8961,-24.4956,70.63,75,100,12.57,CV,1612816958
rio gallegos,-51.6226,-69.2181,82.4,17,0,14.97,AR,1612816960
morondava,-20.2833,44.2833,81.05,79,100,10.4,MG,1612816961
aklavik,68.2191,-135.0107,-36.4,67,100,3.44,CA,1612816930
lompoc,34.6391,-120.4579,57.99,76,40,5.06,US,1612816963
majene,-3.5403,118.9707,76.96,85,100,2.59,ID,1612816964
champaign,40.1334,-88.2001,12.99,79,90,6.91,US,1612816435
chuy,-33.6971,-53.4616,66.74,85,88,9.64,UY,1612816966
esperance,-33.8667,121.9,60.8,88,75,5.75,AU,1612816967
hisor,38.525,68.5512,53.6,58,90,2.15,TJ,1612816968
kaitangata,-46.2817,169.8464,60.6,90,100,3.38,NZ,1612816969
fonte boa,-2.4959,-66.2662,84.42,87,94,1.83,BR,1612816972
yulara,-25.2406,130.9889,84.2,24,71,13.8,AU,1612816974
talnakh,69.4865,88.3972,4.12,92,100,10.65,RU,1612816975
tsalka,41.5946,44.0891,36.95,71,99,7.83,GE,1612816976
faanui,-16.4833,-151.75,81.39,77,18,13.27,PF,1612816977
chota,-6.55,-78.65,63.88,75,99,5.35,PE,1612816978
new norfolk,-42.7826,147.0587,53.01,72,31,1.54,AU,1612816979
les escoumins,48.1111,-69.0236,19.4,53,4,20.71,CA,1612816980
thompson,55.7435,-97.8558,-18.4,69,90,16.11,CA,1612816830
guerrero negro,27.9769,-114.0611,70.16,39,33,10.98,MX,1612816983
casas grandes,30.3667,-107.95,70,9,0,3,MX,1612816984
okato,-39.2,173.8833,64,76,100,10,NZ,1612816985
saint anthony,45.0205,-93.218,1,50,40,8.05,US,1612816986
tevaitoa,-16.7833,-151.5,81.18,77,2,12.82,PF,1612816987
dikson,73.5069,80.5464,-31.56,85,76,13.65,RU,1612816988
marsh harbour,26.5412,-77.0636,76.57,81,18,9.57,BS,1612816989
filadelfia,39.9523,-75.1638,33.01,37,20,5.75,US,1612816806
sechura,-5.5569,-80.8222,86.31,46,20,15.61,PE,1612816992
port macquarie,-31.4333,152.9167,66.99,92,59,10.78,AU,1612816993
twentynine palms,34.1356,-116.0542,69.01,15,20,3.44,US,1612816996
kapaa,22.0752,-159.319,75.99,56,1,12.66,US,1612816997
cidreira,-30.1811,-50.2056,74.77,71,0,12.21,BR,1612816998
jingdezhen,29.2947,117.2079,44.76,91,93,3.47,CN,1612816999
gainesville,29.6516,-82.3248,71.6,60,90,11.5,US,1612816774
nome,64.5011,-165.4064,7,51,40,8.05,US,1612817001
hienghene,-20.6833,164.9333,78.17,74,6,3.02,NC,1612817002
zhigansk,66.7697,123.3711,-27.35,81,0,8.95,RU,1612817003
mpophomeni,-29.5682,30.1862,66.99,96,100,1.57,ZA,1612817004
lasa,46.6166,10.7002,42.8,81,40,1.14,IT,1612817005
namatanai,-3.6667,152.4333,81.37,82,84,6.11,PG,1612817007
beyneu,45.3167,55.2,22.77,80,100,3.29,KZ,1612816788
faya,18.3851,42.4509,50,81,40,5.75,SA,1612816946
kumluca,36.3703,30.2869,58.37,75,82,0.92,TR,1612817010
hauterive,46.0901,3.4459,35.6,93,90,5.75,FR,1612817011
rio cuarto,-33.1307,-64.3499,60.8,94,90,13.8,AR,1612817012
san jeronimo,-11.9472,-75.2829,63.28,49,84,0.94,PE,1612817013
saint george,37.1041,-113.5841,60.01,20,1,2.53,US,1612816951
kailua,21.4022,-157.7394,77,53,20,13.8,US,1612816935
soyo,-6.1349,12.3689,80.44,82,100,6.85,AO,1612817016
langsa,4.4683,97.9683,74.07,92,93,2.3,ID,1612817018
susice,49.2311,13.5202,25,95,89,1.01,CZ,1612816943
tuatapere,-46.1333,167.6833,54.88,93,100,9.64,NZ,1612817022
saskylakh,71.9167,114.0833,-30.98,83,22,3.18,RU,1612817023
media luna,20.1419,-77.435,84,58,27,6.78,CU,1612817024
sambava,-14.2667,50.1667,77.14,87,93,4.59,MG,1612817026
puerto ayora,-0.7393,-90.3518,80.6,78,75,8.05,EC,1612817028
matara,5.9485,80.5353,73.62,85,99,8.99,LK,1612817029
caravelas,-17.7125,-39.2481,72.25,96,100,1.68,BR,1612817030
conakry,9.538,-13.6773,84.2,74,20,6.91,GN,1612817031
bilibino,68.0546,166.4372,4.26,81,100,6.44,RU,1612816992
tonekabon,36.8163,50.8738,51.8,87,90,4.43,IR,1612817034
sorong,-0.8833,131.25,80.33,81,100,0.89,ID,1612817035
puerto ayacucho,5.6639,-67.6236,90.68,51,97,3.87,VE,1612817036
brigham city,41.5102,-112.0155,44.6,23,1,5.75,US,1612817038
nhulunbuy,-12.2333,136.7667,78.8,94,40,6.91,AU,1612817039
acapulco,16.8634,-99.8901,86,62,20,8.05,MX,1612816796
asau,46.4333,26.4,34,76,100,4.09,RO,1612817042
grindavik,63.8424,-22.4338,30.2,74,0,10.36,IS,1612817043
hay river,60.8156,-115.7999,-27.4,68,75,24.16,CA,1612817045
rindal,63.0565,9.2124,10.89,81,0,5.01,NO,1612817046
fort nelson,58.8053,-122.7002,-16.6,63,40,11.5,CA,1612817047
karlskoga,59.3267,14.5239,19.99,86,20,10.36,SE,1612817048
denpasar,-8.65,115.2167,77,94,40,5.75,ID,1612816934
srirampur,22.9489,88.0189,62.6,77,0,4.79,IN,1612817051
ozernovskiy,51.5,156.5167,14.4,90,0,8.41,RU,1612817052
staunton,38.1496,-79.0717,39.99,45,1,4.61,US,1612816870
bontang,0.1333,117.5,79.12,81,100,2.62,ID,1612817055
tiarei,-17.5333,-149.3333,84.2,74,40,3.44,PF,1612817056
melun,48.5,2.75,30.2,86,90,4.61,FR,1612816991
vila velha,-20.3297,-40.2925,79,94,90,3.44,BR,1612817060
lang son,21.8333,106.7333,59,85,100,4.52,VN,1612817062
portland,45.5234,-122.6762,46.99,61,75,3.44,US,1612817036
mpanda,-6.3655,31.0409,67.01,92,100,2.89,TZ,1612817064
matata,-37.8833,176.75,71.01,69,100,3,NZ,1612817065
montgomery,39.1501,-77.1997,37.99,41,1,8.05,US,1612816864
poum,-20.2333,164.0167,80.74,71,51,8.16,NC,1612817069
auki,-8.7676,160.7034,81.57,79,88,5.99,SB,1612817070
jerecuaro,20.15,-100.5167,77,15,1,9.22,MX,1612817072
iqaluit,63.7506,-68.5145,24.8,74,75,4.61,CA,1612817075
ribeira grande,38.5167,-28.7,60.8,82,75,16.11,PT,1612817076
tabory,58.5198,64.5495,-10.5,89,100,7.74,RU,1612817077
biak,-0.9131,122.8766,75.22,87,100,2.46,ID,1612817078
sao raimundo das mangabeiras,-7.0219,-45.4811,79.38,83,86,1.7,BR,1612817080
hofn,64.2539,-15.2082,33.6,87,100,13.65,IS,1612817082
katsuura,35.1333,140.3,37,29,26,3,JP,1612817083
half moon bay,37.4636,-122.4286,59,76,75,4.61,US,1612817043
leh,34.1667,77.5833,14.83,68,49,1.34,IN,1612816974
pimenta bueno,-11.6725,-61.1936,83.89,80,100,1.7,BR,1612817086
natal,-5.795,-35.2094,84.2,70,20,18.41,BR,1612816905
whitehorse,60.7161,-135.0538,-16.01,69,20,8.05,CA,1612816791
bambous virieux,-20.3428,57.7575,78.8,78,40,6.91,MU,1612817089
waterloo,43.4668,-80.5164,17.01,57,1,6.91,CA,1612816921
puerto del rosario,28.5004,-13.8627,64.4,68,40,9.22,ES,1612817091
ternate,0.8,127.4,80.69,81,74,6.4,ID,1612817093
tautira,-17.7333,-149.15,84.2,74,40,3.44,PF,1612817094
de aar,-30.6497,24.0123,74.3,35,0,18.57,ZA,1612817095
grafton,42.207,-71.6856,28,36,1,6.91,US,1612817096
ilulissat,69.2167,-51.1,23,39,1,29.93,GL,1612817097
villamontes,-21.25,-63.5,93.61,25,16,8.68,BO,1612817098
toora-khem,52.4675,96.11,10.98,92,100,2.17,RU,1612817099
oranjestad,12.524,-70.027,84.2,61,20,23.02,AW,1612816981
oussouye,12.485,-16.5469,82.4,51,0,2.3,SN,1612817103
mogadishu,2.0371,45.3438,77.49,83,94,23.33,SO,1612817104
kavieng,-2.5744,150.7967,82.98,77,89,8.55,PG,1612817105
norman wells,65.282,-126.8329,-29.2,75,1,9.22,CA,1612816930
hambantota,6.1241,81.1185,77.14,73,100,19.98,LK,1612817109
eyl,7.9803,49.8164,74.98,74,63,18.48,SO,1612817110
nivala,63.9167,24.9667,12,91,63,5.99,FI,1612817111
culpeper,38.5004,-77.9664,41,38,1,6.91,US,1612817112
okhotsk,59.3833,143.3,14.63,89,100,14.63,RU,1612817113
gawler,-34.6,138.7333,66,59,0,11.01,AU,1612817114
innisfail,-17.5333,146.0333,77.83,88,100,4.12,AU,1612817115
tezu,27.9167,96.1667,59.56,35,0,3.87,IN,1612817116
fairview,40.8126,-73.999,30.99,40,1,5.75,US,1612817117
naze,28.3667,129.4833,53.01,76,22,16.64,JP,1612817119
yarkovo,57.4028,67.0786,-10.98,88,100,8.63,RU,1612817120
gorontalo,0.5412,123.0595,75.97,88,98,2.42,ID,1612817121
mackay,-21.15,149.2,75.99,94,88,8.05,AU,1612817122
marau,-28.4492,-52.2,75.6,73,0,3.8,BR,1612817123
krasnoselkup,65.7,82.4667,-6.56,91,89,7.45,RU,1612817124
phalaborwa,-23.943,31.1411,77,94,3,3.44,ZA,1612817125
tongliao,43.6125,122.2653,7.09,92,0,8.52,CN,1612817126
champerico,14.3,-91.9167,93.2,52,40,9.22,GT,1612817127
goderich,43.7501,-81.7165,15.8,62,100,10.36,CA,1612816868
tselinnoye,53.0833,85.6667,17.56,94,100,16.6,RU,1612817130
asyut,27.181,31.1837,66.2,37,0,9.22,EG,1612816923
gizo,-8.103,156.8419,83.79,73,97,8.34,SB,1612817132
bucerias,20.75,-105.3333,77,61,1,9.22,MX,1612817110
hobyo,5.3505,48.5268,77.09,74,75,21.99,SO,1612817134
nanortalik,60.1432,-45.2371,29.52,90,86,14.63,GL,1612816993
visnes,59.3556,5.2242,25,58,0,6.91,NO,1612817137
wani,20.0667,78.95,59.97,31,1,4.61,IN,1612816888
old saybrook,41.2918,-72.3762,30.2,31,1,5.75,US,1612817139
puerto escondido,15.85,-97.0667,86,70,1,10.36,MX,1612817140
wanaka,-44.7,169.15,57.29,82,100,3.15,NZ,1612817141
zaranj,30.9667,61.8833,59,38,0,11.5,AF,1612817143
isangel,-19.55,169.2667,75.2,100,20,5.86,VU,1612817144
qiongshan,20.0058,110.3542,66.2,100,90,13.42,CN,1612817145
ginda,30.6945,78.4932,48.97,38,2,6.13,IN,1612817146
chifeng,42.2683,118.9636,12.49,86,0,6.53,CN,1612817147
kaka,37.3482,59.6143,48.69,69,1,6.53,TM,1612817148
grand-lahou,5.1367,-5.0242,79.07,87,14,7,CI,1612817149
karak,31.1667,35.75,51.8,62,76,4.61,JO,1612817150
boksitogorsk,59.474,33.8485,-0.94,92,5,4.23,RU,1612817151
east london,-33.0153,27.9116,69.69,75,29,4.99,ZA,1612817001
paita,-5.0892,-81.1144,87.8,51,0,17.27,PE,1612817154
rio grande,-32.035,-52.0986,75.2,73,40,11.5,BR,1612817155
labuan,5.2767,115.2417,77,94,20,4.34,MY,1612817156
necochea,-38.5473,-58.7368,64.99,66,14,5.99,AR,1612816924
helmsdale,58.1168,-3.6517,32,86,75,10.36,GB,1612817158
victoria,22.2855,114.1577,66,77,95,3,HK,1612816883
mezen,65.8522,44.24,-16.29,89,100,4.92,RU,1612817161
praya,14.9215,-23.5087,69.8,73,90,18.41,CV,1612817162
altamira,-3.2033,-52.2064,80.6,94,75,3.44,BR,1612817163
acarau,-2.8856,-40.12,81.25,79,100,12.17,BR,1612817164
alice springs,-23.7,133.8833,80.6,57,75,4.61,AU,1612817149
verkhnyaya inta,65.9811,60.3094,-16.47,89,100,3.49,RU,1612817167
castro,-24.7911,-50.0119,69.84,78,18,4.63,BR,1612816965
purnia,25.7833,87.4667,55.26,63,0,7.09,IN,1612817169
namibe,-15.1961,12.1522,72.37,77,97,7.05,AO,1612817170
harper,4.375,-7.7169,78.33,86,100,3.29,LR,1612817171
mahebourg,-20.4081,57.7,78.8,78,40,6.91,MU,1612816991
tamworth,52.634,-1.6959,30.99,89,77,5.99,GB,1612817109
gotsu,35,132.2167,37.36,79,100,9.69,JP,1612817174
neuquen,-38.9516,-68.0591,73.4,38,0,9.22,AR,1612817175
port lincoln,-34.7333,135.8667,65.84,80,16,13.8,AU,1612817177
khatanga,71.9667,102.5,-19.41,82,4,12.88,RU,1612816966
norwich,52.6278,1.2983,32,93,75,9.22,GB,1612817180
ndioum,16.5129,-14.6471,73.89,18,73,10.69,SN,1612817182
onzaga,6.3443,-72.8173,69.37,68,65,4.07,CO,1612817183
noshiro,40.2039,140.0242,25.57,91,100,23.58,JP,1612817184
walvis bay,-22.9575,14.5053,64.4,82,50,9.22,NA,1612817185
moshkovo,55.3053,83.6104,12.2,67,90,24.61,RU,1612817187
nanakuli,21.3906,-158.1547,78.8,50,1,12.66,US,1612817188
codrington,-38.2667,141.9667,52.65,88,5,9.04,AU,1612817189
ponta do sol,32.6667,-17.1,57.99,69,32,3,PT,1612817190
idar,49.7167,7.3,26.01,93,75,3.44,DE,1612817191
fare,-16.7,-151.0167,81.21,77,8,13.24,PF,1612817192
lorengau,-2.0226,147.2712,82.58,77,41,7.63,PG,1612816983
dunedin,-45.8742,170.5036,62.01,79,100,1.99,NZ,1612816936
severnyy,50.677,36.5532,15.8,67,0,15.66,RU,1612817195
mitsamiouli,-11.3847,43.2844,83.07,78,100,13.15,KM,1612817196
grand gaube,-20.0064,57.6608,77,81,5,1.99,MU,1612817198
concarneau,47.875,-3.9225,35.6,87,90,5.75,FR,1612817199
nizhniy tsasuchey,50.5167,115.1333,8.1,91,22,5.64,RU,1612817200
borogontsy,62.6683,131.1683,-21.8,85,100,2.84,RU,1612817201
finnsnes,69.2296,17.9811,5,92,40,2.3,NO,1612817202
trairi,-3.2778,-39.2689,80.78,79,46,10.09,BR,1612816953
copiapo,-27.3667,-70.3333,69.8,60,0,11.5,CL,1612817205
eureka,40.8021,-124.1637,51.01,73,100,5.01,US,1612817104
roma,43.2128,-75.4557,24.01,42,20,4.65,US,1612817046
omboue,-1.5746,9.2618,78.69,87,94,2.37,GA,1612817208
russell,32.3502,-85.1999,62.6,42,20,11.5,US,1612817209
burnie,-41.0667,145.9167,55,60,0,12.33,AU,1612816949
idrinskoye,54.3708,92.1358,23.23,92,98,5.37,RU,1612817211
karratha,-20.7377,116.8463,78.78,74,15,12.91,AU,1612817212
bathsheba,13.2167,-59.5167,82.4,54,40,17.27,BB,1612816997
apiai,-24.5094,-48.8425,68.85,77,39,5.91,BR,1612816935
grand-santi,4.25,-54.3833,77.13,93,24,4.74,GF,1612817218
maniitsoq,65.4167,-52.9,24.33,82,0,11.05,GL,1612817219
ribeira brava,32.65,-17.0667,57.99,77,25,7,PT,1612817220
general roca,-39.0333,-67.5833,73.4,38,0,9.22,AR,1612816988
quatre cocos,-20.2078,57.7625,78.8,78,40,6.91,MU,1612817222
atar,20.5169,-13.0499,65.44,27,0,9.28,MR,1612817223
bredy,52.4153,60.3411,-13.61,83,53,17.02,RU,1612817224
waddan,29.1614,16.139,58.33,33,0,2.21,LY,1612817225
antalaha,-14.9003,50.2788,76.17,88,88,3.67,MG,1612817228
adrar,20.5022,-10.0711,63.97,27,17,9.98,MR,1612817229
hualmay,-11.0964,-77.6139,76.17,68,100,11.52,PE,1612817231
salinopolis,-0.6136,-47.3561,81.23,79,25,12.3,BR,1612817232
curup,-3.4667,102.5333,67.35,85,100,2.75,ID,1612817233
bodden town,19.2833,-81.25,82.4,74,40,14.97,KY,1612817235
kristianstad,56.0313,14.1524,24.8,68,90,13.8,SE,1612817237
beringovskiy,63.05,179.3167,-1.21,93,100,6.8,RU,1612817238
batagay-alyta,67.8006,130.4114,-22.83,75,1,0.49,RU,1612817239
muli,2.9167,73.5667,82.13,78,32,20.51,MV,1612817240
alibag,18.6411,72.8792,75.2,50,0,4.61,IN,1612817241
high level,58.5169,-117.136,-23.8,62,75,10.36,CA,1612817242
mtwara,-10.2667,40.1833,79.61,87,100,13.69,TZ,1612817243
rawson,-43.3002,-65.1023,72.09,37,0,22.21,AR,1612817244
tuy hoa,13.0833,109.3,70.27,90,49,4.76,VN,1612817245
kununurra,-15.7667,128.7333,77,100,40,5.75,AU,1612817247
fortuna,40.5982,-124.1573,55,76,1,4.18,US,1612817248
tabriz,38.08,46.2919,39.2,81,0,4.61,IR,1612817249
paamiut,61.994,-49.6678,30.58,85,73,9.86,GL,1612817250
banganapalle,15.3167,78.2333,66.33,73,0,2.62,IN,1612817252
north bend,43.4065,-124.2243,48.99,71,1,3.44,US,1612817253
provideniya,64.3833,-173.3,-0.56,88,100,16.62,RU,1612817254
ananas,19.2466,-71.9557,82.92,36,69,12.28,HT,1612817255
hervey bay,-25.2986,152.8535,75,77,55,1.01,AU,1612817256
coffs harbour,-30.3,153.1333,68,83,40,9.22,AU,1612817258
seoni malwa,22.45,77.4667,55.94,37,0,2.42,IN,1612817259
nyurba,63.2842,118.3319,-26.48,85,60,2.75,RU,1612817260
marawi,7.9986,124.2928,75,93,99,3,PH,1612817261
evensk,61.95,159.2333,10.29,90,100,42.99,RU,1612817262
wanning,18.8003,110.3967,70.66,92,97,9.53,CN,1612817264
ngunguru,-35.6167,174.5,70,87,100,10,NZ,1612817265
noumea,-22.2763,166.4572,78.01,88,0,3.44,NC,1612817232
dongsheng,39.8161,109.9776,23.67,80,24,6.26,CN,1612817267
sistranda,63.7256,8.834,23,80,20,10.36,NO,1612817268
visby,57.6409,18.296,26.01,74,75,8.05,SE,1612817269
chinhoyi,-17.3667,30.2,66.27,91,99,3.74,ZW,1612817270
muyezerskiy,63.9333,31.65,1.89,94,90,6.78,RU,1612817271
bubaque,11.2833,-15.8333,77.47,70,12,14.18,GW,1612817272
mount isa,-20.7333,139.5,75.2,100,75,3.44,AU,1612817273
smithers,54.7804,-127.1743,5,78,40,11.5,CA,1612817274
longyearbyen,78.2186,15.6401,14,57,0,16.11,SJ,1612817108
orlik,52.5178,99.825,10,83,100,2.64,RU,1612817277
abnub,27.2696,31.1511,66.2,37,0,9.22,EG,1612817278
olafsvik,64.8945,-23.7142,34.83,84,97,15.01,IS,1612817279
camacha,33.0833,-16.3333,59,88,20,10.36,PT,1612817016
san cristobal,7.7669,-72.225,89.6,48,40,11.5,VE,1612817281
bonavista,48.6499,-53.1147,30.99,100,100,10.36,CA,1612817282
hasaki,35.7333,140.8333,32,47,20,9.22,JP,1612817284
honningsvag,70.9821,25.9704,24.8,74,75,19.57,NO,1612817286
piopio,-38.4667,175.0167,69.01,70,100,4,NZ,1612817288
tabou,4.423,-7.3528,78.51,86,100,4.32,CI,1612817289
ravar,31.2656,56.8055,50.36,54,0,1.34,IR,1612817290
kettering,39.6895,-84.1688,33.01,43,90,6.91,US,1612817291
geraldton,-28.7667,114.6,62.6,94,40,3.44,AU,1612817292
san pedro,14.35,121.0167,78.8,73,75,4.61,PH,1612817293
dwarka,22.2394,68.9678,70.05,61,81,12.97,IN,1612817294
aykhal,66,111.5,-17.59,86,100,6.51,RU,1612817295
ambunti,-4.2365,142.8448,74.84,97,100,2.24,PG,1612817297
vitim,59.4511,112.5578,16.27,95,69,4.88,RU,1612817298
diamantino,-14.4086,-56.4461,85.5,56,85,1.5,BR,1612817300
vestmannaeyjar,63.4427,-20.2734,35.92,81,48,12.91,IS,1612817301
rabo de peixe,37.8,-25.5833,60.01,94,75,21.85,PT,1612817302
morada nova,-5.1067,-38.3725,86.68,51,69,11.83,BR,1612817303
svetlogorsk,52.6333,29.7333,14.94,95,100,18.77,BY,1612817304
teyateyaneng,-29.1472,27.7489,65.17,64,1,6.42,LS,1612817305
lugovoy,42.9472,72.7644,32.5,95,100,5.28,KZ,1612817306
pangkalanbuun,-2.6833,111.6167,73.8,98,83,1.9,ID,1612817307
taunggyi,20.7833,97.0333,45.93,86,0,0.92,MM,1612817308
hovd,48.0056,91.6419,12.63,89,48,1.28,MN,1612817310
margate,51.3813,1.3862,30,73,100,5.01,GB,1612817311
cookeville,36.1628,-85.5016,45,87,1,5.75,US,1612817312
seoul,37.5683,126.9778,19.4,73,0,2.3,KR,1612817198
henties bay,-22.116,14.2845,66.74,77,52,13.2,NA,1612817032
peleduy,59.6289,112.7406,14.58,95,77,4.76,RU,1612817315
kysyl-syr,63.8986,122.7617,-25.92,84,12,2.75,RU,1612817317
padang,-0.9492,100.3543,75.2,88,75,2.3,ID,1612817318
belyy yar,53.6039,91.3903,15.8,92,99,2.24,RU,1612817321
baykit,61.67,96.37,13.86,93,100,7.99,RU,1612817323
cockburn town,21.4612,-71.1419,82.4,65,40,13.8,TC,1612817153
ola,59.5833,151.2833,7.75,93,100,13.4,RU,1612817063
sao felix do xingu,-6.6447,-51.995,80.94,84,100,1.5,BR,1612817327
tazovskiy,67.4667,78.7,-14.46,88,65,4.9,RU,1612817329
irece,-11.3042,-41.8558,73.71,81,100,4.36,BR,1612817331
kaduqli,11.0167,29.7167,69.93,23,16,10.02,SD,1612817332
saravena,6.9538,-71.8752,87.84,47,39,3.67,CO,1612817333
ballina,-28.8667,153.5667,73.4,60,40,13.8,AU,1612817334
severo-kurilsk,50.6789,156.125,17.91,86,20,5.88,RU,1612817335
mangai,-4.05,19.5333,75.4,79,99,1.86,CD,1612817337
mitchell,43.7094,-98.0298,6.8,72,90,4.61,US,1612817338
nemuro,43.3236,145.575,19.18,87,84,21.5,JP,1612817339
mutsu,41.2894,141.2169,23,78,74,21.85,JP,1612817340
touros,-5.1989,-35.4608,84.2,65,0,18.41,BR,1612817341
danville,36.586,-79.395,50,37,1,4.61,US,1612817236
rudnya,54.947,31.0934,6.13,94,100,10.54,RU,1612817343
talara,-4.5772,-81.2719,87.8,51,0,17.27,PE,1612817344
antofagasta,-23.65,-70.4,69.8,68,20,18.41,CL,1612817345
eresos,39.1667,25.9333,62.6,77,20,21.85,GR,1612817346
chunskiy,56.0815,99.6342,25.48,93,100,9.26,RU,1612817348
two hills,53.7169,-111.7518,-20.2,76,28,13.8,CA,1612817424
havre-saint-pierre,50.2334,-63.5986,26.6,68,75,13.8,CA,1612817425
ipixuna,-1.7625,-48.8043,84.2,74,40,12.66,BR,1612817426
sao marcos,-28.9711,-51.0681,78.01,53,43,7,BR,1612817427
nouadhibou,20.931,-17.0347,64.4,72,0,17.27,MR,1612817428
solnechnyy,50.7214,136.6319,-3.66,88,100,2.55,RU,1612817429
orotina,9.912,-84.5234,82.4,47,20,14.97,CR,1612817430
kidal,18.4411,1.4078,73.27,19,96,9.19,ML,1612817432
samarai,-10.6167,150.6667,81.73,80,100,6.04,PG,1612817433
airai,-8.9266,125.4092,60.76,100,100,3.15,TL,1612817434
canutama,-6.5339,-64.3831,90,60,100,2.53,BR,1612817435
agboville,5.928,-4.2132,77.41,88,27,4.88,CI,1612817436
lodja,-3.4833,23.4333,74.82,62,84,0.76,CD,1612817437
sawakin,19.1059,37.3321,75.92,66,0,6.87,SD,1612817438
nishihara,26.1842,127.7558,60.8,58,1,8.05,JP,1612817440
ust-karsk,52.7011,118.8077,-5.35,87,80,1.97,RU,1612817441
phan thiet,10.9333,108.1,70.25,83,0,4.45,VN,1612817442
narsaq,60.9167,-46.05,39.2,28,40,40.29,GL,1612817443
coquimbo,-29.9533,-71.3436,68,64,0,13.8,CL,1612817445
clearlake,38.9582,-122.6264,59,49,100,1.66,US,1612817173
mandera,3.9366,41.867,85.32,29,40,9.53,KE,1612817447
paveh,35.0434,46.3565,42.24,63,0,2.04,IR,1612817448
presidencia roque saenz pena,-26.7852,-60.4388,91,38,100,3,AR,1612817449
komsomolskiy,40.4272,71.7189,46.4,81,90,6.91,UZ,1612817450
kerema,-7.9631,145.7785,79.56,75,99,3.33,PG,1612817451
palmer,42.1584,-72.3287,28.99,33,20,3.44,US,1612817452
minudasht,37.2289,55.3747,55.51,58,0,3.49,IR,1612817453
polewali,-3.4324,119.3435,76.03,82,100,2.93,ID,1612817454
mochishche,55.1586,83.1229,12.2,67,90,24.61,RU,1612817456
bolobo,-2.1667,16.2333,79.16,66,73,1.52,CD,1612817457
amahai,-3.3333,128.9167,78.75,75,98,2.86,ID,1612817458
dutlwe,-23.9833,23.9,72,75,15,7.81,BW,1612817459
hokitika,-42.7167,170.9667,58.95,91,100,10.4,NZ,1612817460
cayenne,4.9333,-52.3333,82.4,69,75,16.11,GF,1612817461
garowe,8.4054,48.4845,67.82,75,19,14.76,SO,1612817462
verkhnevilyuysk,63.4453,120.3167,-25.46,86,82,2.68,RU,1612817463
baijiantan,45.6333,85.1833,22.78,94,76,6.29,CN,1612817464
konstantinovskoye,45.2992,42.6367,30.2,93,40,13.42,RU,1612817466
pitimbu,-7.4706,-34.8086,84.2,70,20,12.66,BR,1612817468
sangar,63.9242,127.4739,-25.8,84,12,4.23,RU,1612817469
mandalgovi,45.7625,106.2708,13.1,77,0,7.52,MN,1612817470
tottori,35.5,134.2333,34.34,85,100,7.61,JP,1612817471
kushiro,42.975,144.3747,17.47,89,56,16.53,JP,1612817472
luganville,-15.5333,167.1667,80.96,66,0,2.04,VU,1612817473
hope,33.6671,-93.5916,55.99,71,75,9.22,US,1612817474
sarangani,5.4033,125.4636,81.3,76,100,1.74,PH,1612817476
fushan,37.4958,121.2581,31.37,81,0,7.11,CN,1612817477
elko,41.0002,-115.5012,51.8,9,1,16.11,US,1612817355
axim,4.8699,-2.2405,80.22,84,4,8.86,GH,1612817479
morristown,36.214,-83.2949,53.01,46,1,5.75,US,1612817431
fenoarivo,-18.933,47.4354,68,83,75,3.44,MG,1612817482
quata,-22.2475,-50.6983,77.85,70,3,4.99,BR,1612817483
terrace,54.5163,-128.6035,12.2,62,75,21.85,CA,1612817484
santa maria da vitoria,-13.3947,-44.1886,73.24,85,98,1.25,BR,1612817486
ibadan,7.3878,3.8964,79.81,74,98,4.59,NG,1612817488
logrono,42.4667,-2.45,48.2,76,20,10.36,ES,1612817489
san vicente,-26.6167,-54.1333,77.61,50,93,1.21,AR,1612817490
comodoro rivadavia,-45.8667,-67.5,75.2,41,0,16.11,AR,1612817491
uvira,-3.4067,29.1458,74.53,66,100,2.26,CD,1612817492
santa fe,-31.6333,-60.7,86,54,99,5.99,AR,1612817493
southbridge,42.0751,-72.0334,27,22,26,6.13,US,1612817569
nantucket,41.2835,-70.0995,27,63,1,11.5,US,1612817571
punta cardon,11.6581,-70.215,80.1,70,0,27.6,VE,1612817572
veraval,20.9,70.3667,71.33,45,0,7.14,IN,1612817573
surt,31.2089,16.5887,63.7,43,0,7.07,LY,1612817574
batemans bay,-35.7167,150.1833,64.99,73,85,4.05,AU,1612817427
bonthe,7.5264,-12.505,79.92,82,23,8.63,SL,1612817576
kaniama,-7.5667,24.1833,67.71,93,100,1.45,CD,1612817577
jalu,29.0331,21.5482,61.48,44,100,11.21,LY,1612817579
pemangkat,1.1667,108.9667,76.3,89,92,7.2,ID,1612817581
tres arroyos,-38.3739,-60.2798,69.96,46,32,15.3,AR,1612817582
saquarema,-22.92,-42.5103,73.4,88,75,9.22,BR,1612817409
ilo,-17.6394,-71.3375,73.4,83,0,13.8,PE,1612817584
taoudenni,22.6783,-3.9836,65.62,24,0,10.29,ML,1612817585
sept-iles,50.2001,-66.3821,25,63,100,14.97,CA,1612817462
saint-pierre,-21.3393,55.4781,78.8,73,20,5.75,RE,1612817587
pochutla,15.7432,-96.4661,90,45,20,11.5,MX,1612817588
hamilton,39.1834,-84.5333,36,44,90,3.44,US,1612817598
ishigaki,24.3448,124.1572,65.91,79,100,24.92,JP,1612817667
gorele,41.0308,39.0031,68,26,75,9.22,TR,1612817668
maceio,-9.6658,-35.7353,78.8,83,20,5.75,BR,1612817669
the valley,18.217,-63.0578,80.6,61,20,16.11,AI,1612817670
walla walla,46.0646,-118.343,42.01,70,90,9.22,US,1612817671
souillac,-20.5167,57.5167,78.8,78,40,6.91,MU,1612817672
kokopo,-4.352,152.2633,79.54,83,97,4.85,PG,1612817673
praia da vitoria,38.7333,-27.0667,60.8,77,75,13,PT,1612817674
nambucca heads,-30.65,153,68,83,40,9.22,AU,1612817676
nampula,-15.1165,39.2666,75.2,100,90,4.61,MZ,1612817677
awbari,26.5921,12.7805,55.36,37,98,4.61,LY,1612817678
rockford,42.2711,-89.094,10.4,67,90,3.44,US,1612817488
kortkeros,61.8106,51.5806,-14.8,76,0,6.71,RU,1612817681
tilichiki,60.4667,166.1,17.4,98,89,9.17,RU,1612817682
saint-denis,48.9167,2.3333,30.99,80,90,5.75,FR,1612817684
nuuk,64.1835,-51.7216,30.2,43,1,12.66,GL,1612817416
rogovatoye,51.23,38.3818,8.37,90,97,12.01,RU,1612817687
port moresby,-9.4431,147.1797,75.2,100,40,6.91,PG,1612817763
yantal,56.8471,105.2542,14.58,94,34,5.12,RU,1612817764
yumen,40.2833,97.2,26.51,77,53,6.8,CN,1612817765
newport,51.5877,-2.9984,33.01,82,15,19.69,GB,1612817767
huarmey,-10.0681,-78.1522,76.53,66,53,10.36,PE,1612817768
kulykivka,51.3735,31.6466,17.37,97,100,20.71,UA,1612817769
dharchula,29.85,80.5333,53.11,33,0,5.64,IN,1612817770
san carlos de bariloche,-41.1456,-71.3082,73,40,0,9.22,AR,1612817489
kachiry,53.0675,76.1036,-7.17,87,84,17.94,KZ,1612817772
boditi,6.9667,37.8667,60.17,71,5,7.94,ET,1612817773
fort smith,35.3859,-94.3986,36,100,90,12.66,US,1612817774
bayangol,50.6977,103.4656,2.86,89,8,2.77,RU,1612817775
khasan,42.4308,130.6434,10.26,84,0,13.47,RU,1612817776
itarema,-2.9248,-39.9167,81.14,79,46,13.24,BR,1612817778
bakhtiyarpur,25.4667,85.5167,50,87,0,5.61,IN,1612817779
vao,-22.6667,167.4833,77.32,82,41,7.47,NC,1612817780
kichera,55.9375,110.0997,11.3,90,95,1.7,RU,1612817781
yagodnoye,62.55,149.6667,-12.78,86,98,4.83,RU,1612817782
vestmanna,62.1564,-7.1664,30.2,74,20,10.36,FO,1612817787
hirara,24.8,125.2833,64.54,77,99,22.64,JP,1612817788
watrous,51.6668,-105.4679,-20.2,63,13,19.57,CA,1612817789
gambela,8.25,34.5833,81.36,19,81,1.01,ET,1612817790
castellammare del golfo,,,,,,,,
najran,,,,,,,,
tamasi,,,,,,,,
raahe,,,,,,,,
urumqi,,,,,,,,
la ronge,,,,,,,,
point pedro,,,,,,,,
kingaroy,,,,,,,,
martyush,,,,,,,,
bonnyville,,,,,,,,
marshall,,,,,,,,
sola,,,,,,,,
saint-augustin,,,,,,,,
gualeguay,,,,,,,,
herat,,,,,,,,
union hidalgo,,,,,,,,
lermontovka,,,,,,,,
ruatoria,,,,,,,,
hengshan,,,,,,,,
anchorage,,,,,,,,
vila do maio,,,,,,,,
